%time,field.header.seq,field.header.stamp,field.header.frame_id,field.orientation.x,field.orientation.y,field.orientation.z,field.orientation.w,field.orientation_covariance0,field.orientation_covariance1,field.orientation_covariance2,field.orientation_covariance3,field.orientation_covariance4,field.orientation_covariance5,field.orientation_covariance6,field.orientation_covariance7,field.orientation_covariance8,field.angular_velocity.x,field.angular_velocity.y,field.angular_velocity.z,field.angular_velocity_covariance0,field.angular_velocity_covariance1,field.angular_velocity_covariance2,field.angular_velocity_covariance3,field.angular_velocity_covariance4,field.angular_velocity_covariance5,field.angular_velocity_covariance6,field.angular_velocity_covariance7,field.angular_velocity_covariance8,field.linear_acceleration.x,field.linear_acceleration.y,field.linear_acceleration.z,field.linear_acceleration_covariance0,field.linear_acceleration_covariance1,field.linear_acceleration_covariance2,field.linear_acceleration_covariance3,field.linear_acceleration_covariance4,field.linear_acceleration_covariance5,field.linear_acceleration_covariance6,field.linear_acceleration_covariance7,field.linear_acceleration_covariance8
1492398273778223970,1,1492398273708036899,,-176.168333412,-1.2929550648,-1.40288153265,0.0,-1.0,0.0,0.0,0.0,0.0,0.0,0.0,0.0,0.0,-0.0341928468,0.0114484978125,-0.029613447675,-1.0,0.0,0.0,0.0,0.0,0.0,0.0,0.0,0.0,-2.74586227459,-0.927174274536,-40.9877877277,-1.0,0.0,0.0,0.0,0.0,0.0,0.0,0.0,0.0
1492398273796826068,2,1492398273728029966,,-176.093620457,1.08156673058,-1.40288153265,0.0,-1.0,0.0,0.0,0.0,0.0,0.0,0.0,0.0,0.0,-0.0346507867125,0.0134329041,-0.02991874095,-1.0,0.0,0.0,0.0,0.0,0.0,0.0,0.0,0.0,-2.79935309812,0.775616941198,-40.9877877277,-1.0,0.0,0.0,0.0,0.0,0.0,0.0,0.0,0.0
1492398273817374104,3,1492398273747925996,,-176.093620457,1.08156673058,-1.38035407344,0.0,-1.0,0.0,0.0,0.0,0.0,0.0,0.0,0.0,0.0,-0.035108726625,0.0132802574625,-0.0285449212125,-1.0,0.0,0.0,0.0,0.0,0.0,0.0,0.0,0.0,-2.79935309812,0.775616941198,-40.9877877277,-1.0,0.0,0.0,0.0,0.0,0.0,0.0,0.0,0.0
1492398273837258449,4,1492398273767924070,,-176.093620457,1.08156673058,-1.38035407344,0.0,-1.0,0.0,0.0,0.0,0.0,0.0,0.0,0.0,0.0,-0.034498140075,0.01037997135,-0.029002861125,-1.0,0.0,0.0,0.0,0.0,0.0,0.0,0.0,0.0,-2.79935309812,0.775616941198,-40.9877877277,-1.0,0.0,0.0,0.0,0.0,0.0,0.0,0.0,0.0
1492398273857150620,5,1492398273787919998,,-176.126614335,-3.87338566493,-1.38035407344,0.0,-1.0,0.0,0.0,0.0,0.0,0.0,0.0,0.0,0.0,-0.033887553525,0.0111432045375,-0.0303766808625,-1.0,0.0,0.0,0.0,0.0,0.0,0.0,0.0,0.0,-2.78152282361,-2.78152282361,-40.9877877277,-1.0,0.0,0.0,0.0,0.0,0.0,0.0,0.0,0.0
1492398273877138365,6,1492398273807921886,,-176.126614335,-3.87338566493,-1.38035407344,0.0,-1.0,0.0,0.0,0.0,0.0,0.0,0.0,0.0,0.0,-0.035108726625,0.010074678075,-0.0303766808625,-1.0,0.0,0.0,0.0,0.0,0.0,0.0,0.0,0.0,-2.78152282361,-2.78152282361,-40.9877877277,-1.0,0.0,0.0,0.0,0.0,0.0,0.0,0.0,0.0
1492398273899220222,7,1492398273828097105,,-176.126614335,-3.87338566493,-1.38035407344,0.0,-1.0,0.0,0.0,0.0,0.0,0.0,0.0,0.0,0.0,-0.0337349068875,0.0123643776375,-0.0273237481125,-1.0,0.0,0.0,0.0,0.0,0.0,0.0,0.0,0.0,-2.78152282361,-2.78152282361,-40.9877877277,-1.0,0.0,0.0,0.0,0.0,0.0,0.0,0.0,0.0
1492398273917233073,8,1492398273847986936,,-176.126614335,-3.87338566493,-1.37483478057,0.0,-1.0,0.0,0.0,0.0,0.0,0.0,0.0,0.0,0.0,-0.03358226025,0.0129749641875,-0.0306819741375,-1.0,0.0,0.0,0.0,0.0,0.0,0.0,0.0,0.0,-2.78152282361,-2.78152282361,-40.9877877277,-1.0,0.0,0.0,0.0,0.0,0.0,0.0,0.0,0.0
1492398273945307769,9,1492398273867980957,,-176.126614335,-3.87338566493,-1.37483478057,0.0,-1.0,0.0,0.0,0.0,0.0,0.0,0.0,0.0,0.0,-0.036635193,0.0141961372875,-0.0315978539625,-1.0,0.0,0.0,0.0,0.0,0.0,0.0,0.0,0.0,-2.78152282361,-2.78152282361,-40.9877877277,-1.0,0.0,0.0,0.0,0.0,0.0,0.0,0.0,0.0
1492398273957421322,10,1492398273888021945,,-176.126614335,-3.87338566493,-1.37483478057,0.0,-1.0,0.0,0.0,0.0,0.0,0.0,0.0,0.0,0.0,-0.033887553525,0.01404349065,-0.0303766808625,-1.0,0.0,0.0,0.0,0.0,0.0,0.0,0.0,0.0,-2.78152282361,-2.78152282361,-40.9877877277,-1.0,0.0,0.0,0.0,0.0,0.0,0.0,0.0,0.0
1492398273977244850,11,1492398273907968044,,-176.126614335,-3.87338566493,-1.37483478057,0.0,-1.0,0.0,0.0,0.0,0.0,0.0,0.0,0.0,0.0,-0.0343454934375,0.012517024275,-0.02991874095,-1.0,0.0,0.0,0.0,0.0,0.0,0.0,0.0,0.0,-2.78152282361,-2.78152282361,-40.9877877277,-1.0,0.0,0.0,0.0,0.0,0.0,0.0,0.0,0.0
1492398273997153218,12,1492398273927880048,,-176.211231512,3.39076627958,-1.37483478057,0.0,-1.0,0.0,0.0,0.0,0.0,0.0,0.0,0.0,0.0,-0.0358719598125,0.01160114445,-0.029002861125,-1.0,0.0,0.0,0.0,0.0,0.0,0.0,0.0,0.0,-2.71911686282,2.43383247066,-40.9877877277,-1.0,0.0,0.0,0.0,0.0,0.0,0.0,0.0,0.0
1492398274018446403,13,1492398273948249101,,-176.211231512,3.39076627958,-1.61679031067,0.0,-1.0,0.0,0.0,0.0,0.0,0.0,0.0,0.0,0.0,-0.0317505006,0.0099220314375,-0.0305293275,-1.0,0.0,0.0,0.0,0.0,0.0,0.0,0.0,0.0,-2.71911686282,2.43383247066,-40.9877877277,-1.0,0.0,0.0,0.0,0.0,0.0,0.0,0.0,0.0
1492398274037181106,14,1492398273967931985,,-176.211231512,3.39076627958,-1.61679031067,0.0,-1.0,0.0,0.0,0.0,0.0,0.0,0.0,0.0,0.0,-0.03236108715,0.012517024275,-0.0319031472375,-1.0,0.0,0.0,0.0,0.0,0.0,0.0,0.0,0.0,-2.71911686282,2.43383247066,-40.9877877277,-1.0,0.0,0.0,0.0,0.0,0.0,0.0,0.0,0.0
1492398274057266292,15,1492398273987946033,,-176.081576827,1.33010209035,-1.61679031067,0.0,-1.0,0.0,0.0,0.0,0.0,0.0,0.0,0.0,0.0,-0.0341928468,0.01160114445,-0.0329716737,-1.0,0.0,0.0,0.0,0.0,0.0,0.0,0.0,0.0,-2.80826823537,0.953919686301,-40.9877877277,-1.0,0.0,0.0,0.0,0.0,0.0,0.0,0.0,0.0
1492398274077511834,16,1492398274008238077,,-176.081576827,1.33010209035,-1.61679031067,0.0,-1.0,0.0,0.0,0.0,0.0,0.0,0.0,0.0,0.0,-0.03602460645,0.0102273247125,-0.0279343346625,-1.0,0.0,0.0,0.0,0.0,0.0,0.0,0.0,0.0,-2.80826823537,0.953919686301,-40.9877877277,-1.0,0.0,0.0,0.0,0.0,0.0,0.0,0.0,0.0
1492398274097019783,17,1492398274027889966,,-176.081576827,1.33010209035,-1.61679031067,0.0,-1.0,0.0,0.0,0.0,0.0,0.0,0.0,0.0,0.0,-0.035108726625,0.0111432045375,-0.0309872674125,-1.0,0.0,0.0,0.0,0.0,0.0,0.0,0.0,0.0,-2.80826823537,0.953919686301,-40.9877877277,-1.0,0.0,0.0,0.0,0.0,0.0,0.0,0.0,0.0
1492398274117245184,18,1492398274048022985,,-176.133393933,-2.34867693204,-1.61679031067,0.0,-1.0,0.0,0.0,0.0,0.0,0.0,0.0,0.0,0.0,-0.036329899725,0.0126696709125,-0.0319031472375,-1.0,0.0,0.0,0.0,0.0,0.0,0.0,0.0,0.0,-2.77260768635,-1.68496094122,-40.9877877277,-1.0,0.0,0.0,0.0,0.0,0.0,0.0,0.0,0.0
1492398274137168457,19,1492398274067915916,,-176.133393933,-2.34867693204,-1.39152665255,0.0,-1.0,0.0,0.0,0.0,0.0,0.0,0.0,0.0,0.0,-0.033276966975,0.012211731,-0.0322084405125,-1.0,0.0,0.0,0.0,0.0,0.0,0.0,0.0,0.0,-2.77260768635,-1.68496094122,-40.9877877277,-1.0,0.0,0.0,0.0,0.0,0.0,0.0,0.0,0.0
1492398274158750699,20,1492398274088721036,,-176.133393933,-2.34867693204,-1.39152665255,0.0,-1.0,0.0,0.0,0.0,0.0,0.0,0.0,0.0,0.0,-0.0322084405125,0.010685264625,-0.02991874095,-1.0,0.0,0.0,0.0,0.0,0.0,0.0,0.0,0.0,-2.77260768635,-1.68496094122,-40.9877877277,-1.0,0.0,0.0,0.0,0.0,0.0,0.0,0.0,0.0
1492398274178894988,21,1492398274108915090,,-176.133393933,-2.34867693204,-1.39152665255,0.0,-1.0,0.0,0.0,0.0,0.0,0.0,0.0,0.0,0.0,-0.03236108715,0.0117537910875,-0.030834620775,-1.0,0.0,0.0,0.0,0.0,0.0,0.0,0.0,0.0,-2.77260768635,-1.68496094122,-40.9877877277,-1.0,0.0,0.0,0.0,0.0,0.0,0.0,0.0,0.0
1492398274198674004,22,1492398274128823995,,-176.133393933,-2.34867693204,-1.39152665255,0.0,-1.0,0.0,0.0,0.0,0.0,0.0,0.0,0.0,0.0,-0.0337349068875,0.010074678075,-0.030834620775,-1.0,0.0,0.0,0.0,0.0,0.0,0.0,0.0,0.0,-2.77260768635,-1.68496094122,-40.9877877277,-1.0,0.0,0.0,0.0,0.0,0.0,0.0,0.0,0.0
1492398274218142283,23,1492398274148459911,,-176.133393933,-2.34867693204,-1.39152665255,0.0,-1.0,0.0,0.0,0.0,0.0,0.0,0.0,0.0,0.0,-0.03480343335,0.011295851175,-0.0293081544,-1.0,0.0,0.0,0.0,0.0,0.0,0.0,0.0,0.0,-2.77260768635,-1.68496094122,-40.9877877277,-1.0,0.0,0.0,0.0,0.0,0.0,0.0,0.0,0.0
1492398274239513312,24,1492398274168565988,,-176.133393933,-2.34867693204,-1.60386277115,0.0,-1.0,0.0,0.0,0.0,0.0,0.0,0.0,0.0,0.0,-0.033276966975,0.012517024275,-0.0312925606875,-1.0,0.0,0.0,0.0,0.0,0.0,0.0,0.0,0.0,-2.77260768635,-1.68496094122,-40.9877877277,-1.0,0.0,0.0,0.0,0.0,0.0,0.0,0.0,0.0
1492398274258267979,25,1492398274188319921,,-176.167703542,0.770884482657,-1.60386277115,0.0,-1.0,0.0,0.0,0.0,0.0,0.0,0.0,0.0,0.0,-0.0341928468,0.012517024275,-0.0329716737,-1.0,0.0,0.0,0.0,0.0,0.0,0.0,0.0,0.0,-2.74586227459,0.552738509819,-40.9877877277,-1.0,0.0,0.0,0.0,0.0,0.0,0.0,0.0,0.0
1492398274277471395,26,1492398274208156108,,-176.167703542,0.770884482657,-1.60386277115,0.0,-1.0,0.0,0.0,0.0,0.0,0.0,0.0,0.0,0.0,-0.0358719598125,0.010074678075,-0.0297660943125,-1.0,0.0,0.0,0.0,0.0,0.0,0.0,0.0,0.0,-2.74586227459,0.552738509819,-40.9877877277,-1.0,0.0,0.0,0.0,0.0,0.0,0.0,0.0,0.0
1492398274297309875,27,1492398274228010892,,-176.167703542,0.770884482657,-1.60386277115,0.0,-1.0,0.0,0.0,0.0,0.0,0.0,0.0,0.0,0.0,-0.036329899725,0.0105326179875,-0.02991874095,-1.0,0.0,0.0,0.0,0.0,0.0,0.0,0.0,0.0,-2.74586227459,0.552738509819,-40.9877877277,-1.0,0.0,0.0,0.0,0.0,0.0,0.0,0.0,0.0
1492398274317329400,28,1492398274247901916,,-176.174935368,-3.60121786428,-1.60386277115,0.0,-1.0,0.0,0.0,0.0,0.0,0.0,0.0,0.0,0.0,-0.03358226025,0.0102273247125,-0.0317505006,-1.0,0.0,0.0,0.0,0.0,0.0,0.0,0.0,0.0,-2.74586227459,-2.58538980399,-40.9877877277,-1.0,0.0,0.0,0.0,0.0,0.0,0.0,0.0,0.0
1492398274337266895,29,1492398274267936944,,-176.174935368,-3.60121786428,-1.61679031067,0.0,-1.0,0.0,0.0,0.0,0.0,0.0,0.0,0.0,0.0,-0.035108726625,0.0105326179875,-0.0285449212125,-1.0,0.0,0.0,0.0,0.0,0.0,0.0,0.0,0.0,-2.74586227459,-2.58538980399,-40.9877877277,-1.0,0.0,0.0,0.0,0.0,0.0,0.0,0.0,0.0
1492398274357778690,30,1492398274287889003,,-176.174935368,-3.60121786428,-1.61679031067,0.0,-1.0,0.0,0.0,0.0,0.0,0.0,0.0,0.0,0.0,-0.033276966975,0.0117537910875,-0.029613447675,-1.0,0.0,0.0,0.0,0.0,0.0,0.0,0.0,0.0,-2.74586227459,-2.58538980399,-40.9877877277,-1.0,0.0,0.0,0.0,0.0,0.0,0.0,0.0,0.0
1492398274457939277,31,1492398274308063030,,-176.217987393,1.31788684874,-1.61679031067,0.0,-1.0,0.0,0.0,0.0,0.0,0.0,0.0,0.0,0.0,-0.0346507867125,0.0085482117,-0.027171101475,-1.0,0.0,0.0,0.0,0.0,0.0,0.0,0.0,0.0,-2.71020172557,0.945004549046,-40.9877877277,-1.0,0.0,0.0,0.0,0.0,0.0,0.0,0.0,0.0
1492398274457952630,32,1492398274327997922,,-176.217987393,1.31788684874,-1.61679031067,0.0,-1.0,0.0,0.0,0.0,0.0,0.0,0.0,0.0,0.0,-0.0354140199,0.011906437725,-0.02991874095,-1.0,0.0,0.0,0.0,0.0,0.0,0.0,0.0,0.0,-2.71020172557,0.945004549046,-40.9877877277,-1.0,0.0,0.0,0.0,0.0,0.0,0.0,0.0,0.0
1492398274457957950,33,1492398274348004102,,-176.217987393,1.31788684874,-1.61679031067,0.0,-1.0,0.0,0.0,0.0,0.0,0.0,0.0,0.0,0.0,-0.035108726625,0.012211731,-0.02991874095,-1.0,0.0,0.0,0.0,0.0,0.0,0.0,0.0,0.0,-2.71020172557,0.945004549046,-40.9877877277,-1.0,0.0,0.0,0.0,0.0,0.0,0.0,0.0,0.0
1492398274457998959,34,1492398274367875099,,-176.217987393,1.31788684874,-1.38591785081,0.0,-1.0,0.0,0.0,0.0,0.0,0.0,0.0,0.0,0.0,-0.03480343335,0.0123643776375,-0.02991874095,-1.0,0.0,0.0,0.0,0.0,0.0,0.0,0.0,0.0,-2.71020172557,0.945004549046,-40.9877877277,-1.0,0.0,0.0,0.0,0.0,0.0,0.0,0.0,0.0
1492398274460859167,35,1492398274387885093,,-176.180684307,4.77613921517,-1.38591785081,0.0,-1.0,0.0,0.0,0.0,0.0,0.0,0.0,0.0,0.0,-0.035108726625,0.00915879825,-0.0300713875875,-1.0,0.0,0.0,0.0,0.0,0.0,0.0,0.0,0.0,-2.74586227459,3.43232784323,-40.9877877277,-1.0,0.0,0.0,0.0,0.0,0.0,0.0,0.0,0.0
1492398274479556504,36,1492398274407970905,,-176.180684307,4.77613921517,-1.38591785081,0.0,-1.0,0.0,0.0,0.0,0.0,0.0,0.0,0.0,0.0,-0.0334296136125,0.0099220314375,-0.033276966975,-1.0,0.0,0.0,0.0,0.0,0.0,0.0,0.0,0.0,-2.74586227459,3.43232784323,-40.9877877277,-1.0,0.0,0.0,0.0,0.0,0.0,0.0,0.0,0.0
1492398274497369103,37,1492398274428016901,,-176.180684307,4.77613921517,-1.38591785081,0.0,-1.0,0.0,0.0,0.0,0.0,0.0,0.0,0.0,0.0,-0.035108726625,0.0105326179875,-0.02991874095,-1.0,0.0,0.0,0.0,0.0,0.0,0.0,0.0,0.0,-2.74586227459,3.43232784323,-40.9877877277,-1.0,0.0,0.0,0.0,0.0,0.0,0.0,0.0,0.0
1492398274517539922,38,1492398274448170900,,-176.168530296,1.4172291859,-1.38591785081,0.0,-1.0,0.0,0.0,0.0,0.0,0.0,0.0,0.0,0.0,-0.0354140199,0.0126696709125,-0.0315978539625,-1.0,0.0,0.0,0.0,0.0,0.0,0.0,0.0,0.0,-2.74586227459,1.01632564709,-40.9877877277,-1.0,0.0,0.0,0.0,0.0,0.0,0.0,0.0,0.0
1492398274537275347,39,1492398274468024015,,-176.168530296,1.4172291859,-1.62992788538,0.0,-1.0,0.0,0.0,0.0,0.0,0.0,0.0,0.0,0.0,-0.034498140075,0.01160114445,-0.031445207325,-1.0,0.0,0.0,0.0,0.0,0.0,0.0,0.0,0.0,-2.74586227459,1.01632564709,-40.9877877277,-1.0,0.0,0.0,0.0,0.0,0.0,0.0,0.0,0.0
1492398274557195797,40,1492398274487900972,,-176.168530296,1.4172291859,-1.62992788538,0.0,-1.0,0.0,0.0,0.0,0.0,0.0,0.0,0.0,0.0,-0.0334296136125,0.011295851175,-0.0305293275,-1.0,0.0,0.0,0.0,0.0,0.0,0.0,0.0,0.0,-2.74586227459,1.01632564709,-40.9877877277,-1.0,0.0,0.0,0.0,0.0,0.0,0.0,0.0,0.0
1492398274577383200,41,1492398274507937908,,-176.16762953,0.683857929427,-1.62992788538,0.0,-1.0,0.0,0.0,0.0,0.0,0.0,0.0,0.0,0.0,-0.033276966975,0.0132802574625,-0.0319031472375,-1.0,0.0,0.0,0.0,0.0,0.0,0.0,0.0,0.0,-2.74586227459,0.490332549033,-40.9877877277,-1.0,0.0,0.0,0.0,0.0,0.0,0.0,0.0,0.0
1492398274597369005,42,1492398274527898073,,-176.16762953,0.683857929427,-1.62992788538,0.0,-1.0,0.0,0.0,0.0,0.0,0.0,0.0,0.0,0.0,-0.03358226025,0.011906437725,-0.0279343346625,-1.0,0.0,0.0,0.0,0.0,0.0,0.0,0.0,0.0,-2.74586227459,0.490332549033,-40.9877877277,-1.0,0.0,0.0,0.0,0.0,0.0,0.0,0.0,0.0
1492398274616912367,43,1492398274547890901,,-176.16762953,0.683857929427,-1.62992788538,0.0,-1.0,0.0,0.0,0.0,0.0,0.0,0.0,0.0,0.0,-0.0317505006,0.0120590843625,-0.0306819741375,-1.0,0.0,0.0,0.0,0.0,0.0,0.0,0.0,0.0,-2.74586227459,0.490332549033,-40.9877877277,-1.0,0.0,0.0,0.0,0.0,0.0,0.0,0.0,0.0
1492398274649226084,44,1492398274567902088,,-176.151595807,3.92300493819,-1.16438804012,0.0,-1.0,0.0,0.0,0.0,0.0,0.0,0.0,0.0,0.0,-0.0334296136125,0.0117537910875,-0.0319031472375,-1.0,0.0,0.0,0.0,0.0,0.0,0.0,0.0,0.0,-2.7636925491,2.81718337263,-40.9877877277,-1.0,0.0,0.0,0.0,0.0,0.0,0.0,0.0,0.0
1492398274657541632,45,1492398274587965965,,-176.151595807,3.92300493819,-1.16438804012,0.0,-1.0,0.0,0.0,0.0,0.0,0.0,0.0,0.0,0.0,-0.0352613732625,0.011906437725,-0.0312925606875,-1.0,0.0,0.0,0.0,0.0,0.0,0.0,0.0,0.0,-2.7636925491,2.81718337263,-40.9877877277,-1.0,0.0,0.0,0.0,0.0,0.0,0.0,0.0,0.0
1492398274679638279,46,1492398274607913017,,-176.151595807,3.92300493819,-1.16438804012,0.0,-1.0,0.0,0.0,0.0,0.0,0.0,0.0,0.0,0.0,-0.037551072825,0.0129749641875,-0.032055793875,-1.0,0.0,0.0,0.0,0.0,0.0,0.0,0.0,0.0,-2.7636925491,2.81718337263,-40.9877877277,-1.0,0.0,0.0,0.0,0.0,0.0,0.0,0.0,0.0
1492398274699892038,47,1492398274627918958,,-176.151595807,3.92300493819,-1.16438804012,0.0,-1.0,0.0,0.0,0.0,0.0,0.0,0.0,0.0,0.0,-0.0341928468,0.0102273247125,-0.0291555077625,-1.0,0.0,0.0,0.0,0.0,0.0,0.0,0.0,0.0,-2.7636925491,2.81718337263,-40.9877877277,-1.0,0.0,0.0,0.0,0.0,0.0,0.0,0.0,0.0
1492398274718447853,48,1492398274647881031,,-176.20049697,-3.78706821017,-1.16438804012,0.0,-1.0,0.0,0.0,0.0,0.0,0.0,0.0,0.0,0.0,-0.032055793875,0.012517024275,-0.0341928468,-1.0,0.0,0.0,0.0,0.0,0.0,0.0,0.0,0.0,-2.72803200008,-2.71911686282,-40.9877877277,-1.0,0.0,0.0,0.0,0.0,0.0,0.0,0.0,0.0
1492398274738770238,49,1492398274667969942,,-176.20049697,-3.78706821017,-1.39152665255,0.0,-1.0,0.0,0.0,0.0,0.0,0.0,0.0,0.0,0.0,-0.034498140075,0.0108379112625,-0.0317505006,-1.0,0.0,0.0,0.0,0.0,0.0,0.0,0.0,0.0,-2.72803200008,-2.71911686282,-40.9877877277,-1.0,0.0,0.0,0.0,0.0,0.0,0.0,0.0,0.0
1492398274757701160,50,1492398274687887907,,-176.20049697,-3.78706821017,-1.39152665255,0.0,-1.0,0.0,0.0,0.0,0.0,0.0,0.0,0.0,0.0,-0.0354140199,0.0123643776375,-0.030834620775,-1.0,0.0,0.0,0.0,0.0,0.0,0.0,0.0,0.0,-2.72803200008,-2.71911686282,-40.9877877277,-1.0,0.0,0.0,0.0,0.0,0.0,0.0,0.0,0.0
1492398274776968765,51,1492398274707942008,,-176.178256018,-4.31896212599,-1.39152665255,0.0,-1.0,0.0,0.0,0.0,0.0,0.0,0.0,0.0,0.0,-0.03602460645,0.0123643776375,-0.0322084405125,-1.0,0.0,0.0,0.0,0.0,0.0,0.0,0.0,0.0,-2.74586227459,-3.10246776479,-40.9877877277,-1.0,0.0,0.0,0.0,0.0,0.0,0.0,0.0,0.0
1492398274797412252,52,1492398274728049993,,-176.178256018,-4.31896212599,-1.39152665255,0.0,-1.0,0.0,0.0,0.0,0.0,0.0,0.0,0.0,0.0,-0.0329716737,0.012211731,-0.02869756785,-1.0,0.0,0.0,0.0,0.0,0.0,0.0,0.0,0.0,-2.74586227459,-3.10246776479,-40.9877877277,-1.0,0.0,0.0,0.0,0.0,0.0,0.0,0.0,0.0
1492398274817653128,53,1492398274747929096,,-176.178256018,-4.31896212599,-1.39152665255,0.0,-1.0,0.0,0.0,0.0,0.0,0.0,0.0,0.0,0.0,-0.03358226025,0.0109905579,-0.0306819741375,-1.0,0.0,0.0,0.0,0.0,0.0,0.0,0.0,0.0,-2.74586227459,-3.10246776479,-40.9877877277,-1.0,0.0,0.0,0.0,0.0,0.0,0.0,0.0,0.0
1492398274837785030,54,1492398274768299102,,-176.130314741,-0.547071774239,-1.61679031067,0.0,-1.0,0.0,0.0,0.0,0.0,0.0,0.0,0.0,0.0,-0.03480343335,0.0097693848,-0.0280869813,-1.0,0.0,0.0,0.0,0.0,0.0,0.0,0.0,0.0,-2.77260768635,-0.392266039227,-40.9877877277,-1.0,0.0,0.0,0.0,0.0,0.0,0.0,0.0,0.0
1492398274857250845,55,1492398274787910938,,-176.130314741,-0.547071774239,-1.61679031067,0.0,-1.0,0.0,0.0,0.0,0.0,0.0,0.0,0.0,0.0,-0.0337349068875,0.0132802574625,-0.033887553525,-1.0,0.0,0.0,0.0,0.0,0.0,0.0,0.0,0.0,-2.77260768635,-0.392266039227,-40.9877877277,-1.0,0.0,0.0,0.0,0.0,0.0,0.0,0.0,0.0
1492398274877248326,56,1492398274807925939,,-176.130314741,-0.547071774239,-1.61679031067,0.0,-1.0,0.0,0.0,0.0,0.0,0.0,0.0,0.0,0.0,-0.0329716737,0.010685264625,-0.0297660943125,-1.0,0.0,0.0,0.0,0.0,0.0,0.0,0.0,0.0,-2.77260768635,-0.392266039227,-40.9877877277,-1.0,0.0,0.0,0.0,0.0,0.0,0.0,0.0,0.0
1492398274897644017,57,1492398274828344106,,-176.157819657,2.21218596887,-1.61679031067,0.0,-1.0,0.0,0.0,0.0,0.0,0.0,0.0,0.0,0.0,-0.0352613732625,0.01404349065,-0.0328190270625,-1.0,0.0,0.0,0.0,0.0,0.0,0.0,0.0,0.0,-2.75477741184,1.58689443142,-40.9877877277,-1.0,0.0,0.0,0.0,0.0,0.0,0.0,0.0,0.0
1492398274917766472,58,1492398274848097085,,-176.157819657,2.21218596887,-1.61679031067,0.0,-1.0,0.0,0.0,0.0,0.0,0.0,0.0,0.0,0.0,-0.035108726625,0.01037997135,-0.0312925606875,-1.0,0.0,0.0,0.0,0.0,0.0,0.0,0.0,0.0,-2.75477741184,1.58689443142,-40.9877877277,-1.0,0.0,0.0,0.0,0.0,0.0,0.0,0.0,0.0
1492398274937712882,59,1492398274868271112,,-176.157819657,2.21218596887,-1.16913932791,0.0,-1.0,0.0,0.0,0.0,0.0,0.0,0.0,0.0,0.0,-0.0355666665375,0.0099220314375,-0.032666380425,-1.0,0.0,0.0,0.0,0.0,0.0,0.0,0.0,0.0,-2.75477741184,1.58689443142,-40.9877877277,-1.0,0.0,0.0,0.0,0.0,0.0,0.0,0.0,0.0
1492398274957216673,60,1492398274887913942,,-176.157819657,2.21218596887,-1.16913932791,0.0,-1.0,0.0,0.0,0.0,0.0,0.0,0.0,0.0,0.0,-0.0331243203375,0.0129749641875,-0.0349560799875,-1.0,0.0,0.0,0.0,0.0,0.0,0.0,0.0,0.0,-2.75477741184,1.58689443142,-40.9877877277,-1.0,0.0,0.0,0.0,0.0,0.0,0.0,0.0,0.0
1492398274977228694,61,1492398274907907009,,-176.143565477,1.31777255814,-1.16913932791,0.0,-1.0,0.0,0.0,0.0,0.0,0.0,0.0,0.0,0.0,-0.0361772530875,0.0123643776375,-0.0297660943125,-1.0,0.0,0.0,0.0,0.0,0.0,0.0,0.0,0.0,-2.7636925491,0.945004549046,-40.9877877277,-1.0,0.0,0.0,0.0,0.0,0.0,0.0,0.0,0.0
1492398274997456046,62,1492398274927898883,,-176.143565477,1.31777255814,-1.16913932791,0.0,-1.0,0.0,0.0,0.0,0.0,0.0,0.0,0.0,0.0,-0.0322084405125,0.009464091525,-0.0309872674125,-1.0,0.0,0.0,0.0,0.0,0.0,0.0,0.0,0.0,-2.7636925491,0.945004549046,-40.9877877277,-1.0,0.0,0.0,0.0,0.0,0.0,0.0,0.0,0.0
1492398275017332643,63,1492398274947909116,,-176.143565477,1.31777255814,-1.16913932791,0.0,-1.0,0.0,0.0,0.0,0.0,0.0,0.0,0.0,0.0,-0.0341928468,0.0105326179875,-0.0297660943125,-1.0,0.0,0.0,0.0,0.0,0.0,0.0,0.0,0.0,-2.7636925491,0.945004549046,-40.9877877277,-1.0,0.0,0.0,0.0,0.0,0.0,0.0,0.0,0.0
1492398275037383207,64,1492398274967931032,,-176.117734239,0.049734567014,-1.38035407344,0.0,-1.0,0.0,0.0,0.0,0.0,0.0,0.0,0.0,0.0,-0.03480343335,0.0120590843625,-0.032055793875,-1.0,0.0,0.0,0.0,0.0,0.0,0.0,0.0,0.0,-2.78152282361,0.0356605490206,-40.9877877277,-1.0,0.0,0.0,0.0,0.0,0.0,0.0,0.0,0.0
1492398275057386918,65,1492398274987934112,,-176.117734239,0.049734567014,-1.38035407344,0.0,-1.0,0.0,0.0,0.0,0.0,0.0,0.0,0.0,0.0,-0.033887553525,0.010685264625,-0.0300713875875,-1.0,0.0,0.0,0.0,0.0,0.0,0.0,0.0,0.0,-2.78152282361,0.0356605490206,-40.9877877277,-1.0,0.0,0.0,0.0,0.0,0.0,0.0,0.0,0.0
1492398275077389354,66,1492398275008013010,,-176.117734239,0.049734567014,-1.38035407344,0.0,-1.0,0.0,0.0,0.0,0.0,0.0,0.0,0.0,0.0,-0.032666380425,0.01037997135,-0.031445207325,-1.0,0.0,0.0,0.0,0.0,0.0,0.0,0.0,0.0,-2.78152282361,0.0356605490206,-40.9877877277,-1.0,0.0,0.0,0.0,0.0,0.0,0.0,0.0,0.0
1492398275097271239,67,1492398275027910947,,-176.193550111,1.54153452843,-1.38035407344,0.0,-1.0,0.0,0.0,0.0,0.0,0.0,0.0,0.0,0.0,-0.032055793875,0.012211731,-0.0328190270625,-1.0,0.0,0.0,0.0,0.0,0.0,0.0,0.0,0.0,-2.72803200008,1.10547701964,-40.9877877277,-1.0,0.0,0.0,0.0,0.0,0.0,0.0,0.0,0.0
1492398275116677036,68,1492398275047862052,,-176.193550111,1.54153452843,-1.38035407344,0.0,-1.0,0.0,0.0,0.0,0.0,0.0,0.0,0.0,0.0,-0.036940486275,0.0141961372875,-0.031445207325,-1.0,0.0,0.0,0.0,0.0,0.0,0.0,0.0,0.0,-2.72803200008,1.10547701964,-40.9877877277,-1.0,0.0,0.0,0.0,0.0,0.0,0.0,0.0,0.0
1492398275136978315,69,1492398275068041086,,-176.193550111,1.54153452843,-1.38035407344,0.0,-1.0,0.0,0.0,0.0,0.0,0.0,0.0,0.0,0.0,-0.0340402001625,0.0123643776375,-0.032666380425,-1.0,0.0,0.0,0.0,0.0,0.0,0.0,0.0,0.0,-2.72803200008,1.10547701964,-40.9877877277,-1.0,0.0,0.0,0.0,0.0,0.0,0.0,0.0,0.0
1492398275158654852,70,1492398275088785886,,-176.095050214,-1.88917339235,-1.61679031067,0.0,-1.0,0.0,0.0,0.0,0.0,0.0,0.0,0.0,0.0,-0.032055793875,0.01037997135,-0.0315978539625,-1.0,0.0,0.0,0.0,0.0,0.0,0.0,0.0,0.0,-2.79935309812,-1.35510086278,-40.9877877277,-1.0,0.0,0.0,0.0,0.0,0.0,0.0,0.0,0.0
1492398275181045236,71,1492398275108877897,,-176.095050214,-1.88917339235,-1.61679031067,0.0,-1.0,0.0,0.0,0.0,0.0,0.0,0.0,0.0,0.0,-0.03358226025,0.0120590843625,-0.031445207325,-1.0,0.0,0.0,0.0,0.0,0.0,0.0,0.0,0.0,-2.79935309812,-1.35510086278,-40.9877877277,-1.0,0.0,0.0,0.0,0.0,0.0,0.0,0.0,0.0
1492398275198170410,72,1492398275128961086,,-176.095050214,-1.88917339235,-1.61679031067,0.0,-1.0,0.0,0.0,0.0,0.0,0.0,0.0,0.0,0.0,-0.03480343335,0.01282231755,-0.0331243203375,-1.0,0.0,0.0,0.0,0.0,0.0,0.0,0.0,0.0,-2.79935309812,-1.35510086278,-40.9877877277,-1.0,0.0,0.0,0.0,0.0,0.0,0.0,0.0,0.0
1492398275217455176,73,1492398275148312091,,-176.095050214,-1.88917339235,-1.61679031067,0.0,-1.0,0.0,0.0,0.0,0.0,0.0,0.0,0.0,0.0,-0.033276966975,0.0132802574625,-0.0305293275,-1.0,0.0,0.0,0.0,0.0,0.0,0.0,0.0,0.0,-2.79935309812,-1.35510086278,-40.9877877277,-1.0,0.0,0.0,0.0,0.0,0.0,0.0,0.0,0.0
1492398275237719955,74,1492398275168056964,,-176.218607948,4.92449709875,-1.61679031067,0.0,-1.0,0.0,0.0,0.0,0.0,0.0,0.0,0.0,0.0,-0.0337349068875,0.01282231755,-0.0303766808625,-1.0,0.0,0.0,0.0,0.0,0.0,0.0,0.0,0.0,-2.71911686282,3.53930949029,-40.9877877277,-1.0,0.0,0.0,0.0,0.0,0.0,0.0,0.0,0.0
1492398275256775216,75,1492398275187962055,,-176.218607948,4.92449709875,-1.62992788538,0.0,-1.0,0.0,0.0,0.0,0.0,0.0,0.0,0.0,0.0,-0.0319031472375,0.0105326179875,-0.03113991405,-1.0,0.0,0.0,0.0,0.0,0.0,0.0,0.0,0.0,-2.71911686282,3.53930949029,-40.9877877277,-1.0,0.0,0.0,0.0,0.0,0.0,0.0,0.0,0.0
1492398275276812755,76,1492398275207923889,,-176.218607948,4.92449709875,-1.62992788538,0.0,-1.0,0.0,0.0,0.0,0.0,0.0,0.0,0.0,0.0,-0.035108726625,0.013738197375,-0.0315978539625,-1.0,0.0,0.0,0.0,0.0,0.0,0.0,0.0,0.0,-2.71911686282,3.53930949029,-40.9877877277,-1.0,0.0,0.0,0.0,0.0,0.0,0.0,0.0,0.0
1492398275298917901,77,1492398275227905035,,-176.131014254,-1.21833141542,-1.62992788538,0.0,-1.0,0.0,0.0,0.0,0.0,0.0,0.0,0.0,0.0,-0.035108726625,0.0120590843625,-0.0312925606875,-1.0,0.0,0.0,0.0,0.0,0.0,0.0,0.0,0.0,-2.77260768635,-0.873683451005,-40.9877877277,-1.0,0.0,0.0,0.0,0.0,0.0,0.0,0.0,0.0
1492398275316781381,78,1492398275247941017,,-176.131014254,-1.21833141542,-1.62992788538,0.0,-1.0,0.0,0.0,0.0,0.0,0.0,0.0,0.0,0.0,-0.0328190270625,0.0123643776375,-0.0303766808625,-1.0,0.0,0.0,0.0,0.0,0.0,0.0,0.0,0.0,-2.77260768635,-0.873683451005,-40.9877877277,-1.0,0.0,0.0,0.0,0.0,0.0,0.0,0.0,0.0
1492398275336676366,79,1492398275267894983,,-176.131014254,-1.21833141542,-1.62992788538,0.0,-1.0,0.0,0.0,0.0,0.0,0.0,0.0,0.0,0.0,-0.03236108715,0.0111432045375,-0.0306819741375,-1.0,0.0,0.0,0.0,0.0,0.0,0.0,0.0,0.0,-2.77260768635,-0.873683451005,-40.9877877277,-1.0,0.0,0.0,0.0,0.0,0.0,0.0,0.0,0.0
1492398275356720091,80,1492398275287895917,,-176.155150046,0.584386680453,-1.40288153265,0.0,-1.0,0.0,0.0,0.0,0.0,0.0,0.0,0.0,0.0,-0.0319031472375,0.0109905579,-0.030834620775,-1.0,0.0,0.0,0.0,0.0,0.0,0.0,0.0,0.0,-2.75477741184,0.419011450992,-40.9877877277,-1.0,0.0,0.0,0.0,0.0,0.0,0.0,0.0,0.0
1492398275376738089,81,1492398275307950019,,-176.155150046,0.584386680453,-1.40288153265,0.0,-1.0,0.0,0.0,0.0,0.0,0.0,0.0,0.0,0.0,-0.0367878396375,0.0093114448875,-0.0293081544,-1.0,0.0,0.0,0.0,0.0,0.0,0.0,0.0,0.0,-2.75477741184,0.419011450992,-40.9877877277,-1.0,0.0,0.0,0.0,0.0,0.0,0.0,0.0,0.0
1492398275396839466,82,1492398275327920913,,-176.155150046,0.584386680453,-1.40288153265,0.0,-1.0,0.0,0.0,0.0,0.0,0.0,0.0,0.0,0.0,-0.0355666665375,0.0138908440125,-0.0300713875875,-1.0,0.0,0.0,0.0,0.0,0.0,0.0,0.0,0.0,-2.75477741184,0.419011450992,-40.9877877277,-1.0,0.0,0.0,0.0,0.0,0.0,0.0,0.0,0.0
1492398275416962255,83,1492398275347914934,,-176.1058865,-0.969717426668,-1.40288153265,0.0,-1.0,0.0,0.0,0.0,0.0,0.0,0.0,0.0,0.0,-0.03480343335,0.012517024275,-0.0312925606875,-1.0,0.0,0.0,0.0,0.0,0.0,0.0,0.0,0.0,-2.79043796086,-0.695380705902,-40.9877877277,-1.0,0.0,0.0,0.0,0.0,0.0,0.0,0.0,0.0
1492398275436779112,84,1492398275367925882,,-176.1058865,-0.969717426668,-1.40288153265,0.0,-1.0,0.0,0.0,0.0,0.0,0.0,0.0,0.0,0.0,-0.03358226025,0.01160114445,-0.0319031472375,-1.0,0.0,0.0,0.0,0.0,0.0,0.0,0.0,0.0,-2.79043796086,-0.695380705902,-40.9877877277,-1.0,0.0,0.0,0.0,0.0,0.0,0.0,0.0,0.0
1492398275456711664,85,1492398275387908935,,-176.1058865,-0.969717426668,-1.61679031067,0.0,-1.0,0.0,0.0,0.0,0.0,0.0,0.0,0.0,0.0,-0.0352613732625,0.0135855507375,-0.0319031472375,-1.0,0.0,0.0,0.0,0.0,0.0,0.0,0.0,0.0,-2.79043796086,-0.695380705902,-40.9877877277,-1.0,0.0,0.0,0.0,0.0,0.0,0.0,0.0,0.0
1492398275476650484,86,1492398275407890081,,-176.1058865,-0.969717426668,-1.61679031067,0.0,-1.0,0.0,0.0,0.0,0.0,0.0,0.0,0.0,0.0,-0.0340402001625,0.0123643776375,-0.030834620775,-1.0,0.0,0.0,0.0,0.0,0.0,0.0,0.0,0.0,-2.79043796086,-0.695380705902,-40.9877877277,-1.0,0.0,0.0,0.0,0.0,0.0,0.0,0.0,0.0
1492398275498976088,87,1492398275428042888,,-176.153326223,4.28174460422,-1.61679031067,0.0,-1.0,0.0,0.0,0.0,0.0,0.0,0.0,0.0,0.0,-0.0343454934375,0.0134329041,-0.030834620775,-1.0,0.0,0.0,0.0,0.0,0.0,0.0,0.0,0.0,-2.7636925491,3.07572235303,-40.9877877277,-1.0,0.0,0.0,0.0,0.0,0.0,0.0,0.0,0.0
1492398275523766130,88,1492398275447887897,,-176.153326223,4.28174460422,-1.61679031067,0.0,-1.0,0.0,0.0,0.0,0.0,0.0,0.0,0.0,0.0,-0.0334296136125,0.0126696709125,-0.0317505006,-1.0,0.0,0.0,0.0,0.0,0.0,0.0,0.0,0.0,-2.7636925491,3.07572235303,-40.9877877277,-1.0,0.0,0.0,0.0,0.0,0.0,0.0,0.0,0.0
1492398275537770418,89,1492398275467969894,,-176.153326223,4.28174460422,-1.61679031067,0.0,-1.0,0.0,0.0,0.0,0.0,0.0,0.0,0.0,0.0,-0.0328190270625,0.0111432045375,-0.028392274575,-1.0,0.0,0.0,0.0,0.0,0.0,0.0,0.0,0.0,-2.7636925491,3.07572235303,-40.9877877277,-1.0,0.0,0.0,0.0,0.0,0.0,0.0,0.0,0.0
1492398275556679581,90,1492398275487911939,,-176.138934955,3.86106504535,-0.884806560835,0.0,-1.0,0.0,0.0,0.0,0.0,0.0,0.0,0.0,0.0,-0.0346507867125,0.0108379112625,-0.02991874095,-1.0,0.0,0.0,0.0,0.0,0.0,0.0,0.0,0.0,-2.77260768635,2.77260768635,-40.9877877277,-1.0,0.0,0.0,0.0,0.0,0.0,0.0,0.0,0.0
1492398275576751103,91,1492398275507917881,,-176.138934955,3.86106504535,-0.884806560835,0.0,-1.0,0.0,0.0,0.0,0.0,0.0,0.0,0.0,0.0,-0.0331243203375,0.0117537910875,-0.0312925606875,-1.0,0.0,0.0,0.0,0.0,0.0,0.0,0.0,0.0,-2.77260768635,2.77260768635,-40.9877877277,-1.0,0.0,0.0,0.0,0.0,0.0,0.0,0.0,0.0
1492398275596620721,92,1492398275527889966,,-176.138934955,3.86106504535,-0.884806560835,0.0,-1.0,0.0,0.0,0.0,0.0,0.0,0.0,0.0,0.0,-0.03480343335,0.0134329041,-0.033276966975,-1.0,0.0,0.0,0.0,0.0,0.0,0.0,0.0,0.0,-2.77260768635,2.77260768635,-40.9877877277,-1.0,0.0,0.0,0.0,0.0,0.0,0.0,0.0,0.0
1492398275616693424,93,1492398275547924995,,-176.204537451,-4.61570877818,-0.884806560835,0.0,-1.0,0.0,0.0,0.0,0.0,0.0,0.0,0.0,0.0,-0.0354140199,0.0132802574625,-0.0340402001625,-1.0,0.0,0.0,0.0,0.0,0.0,0.0,0.0,0.0,-2.72803200008,-3.31643105892,-40.9877877277,-1.0,0.0,0.0,0.0,0.0,0.0,0.0,0.0,0.0
1492398275637283270,94,1492398275567935943,,-176.204537451,-4.61570877818,-0.884806560835,0.0,-1.0,0.0,0.0,0.0,0.0,0.0,0.0,0.0,0.0,-0.0343454934375,0.013127610825,-0.0331243203375,-1.0,0.0,0.0,0.0,0.0,0.0,0.0,0.0,0.0,-2.72803200008,-3.31643105892,-40.9877877277,-1.0,0.0,0.0,0.0,0.0,0.0,0.0,0.0,0.0
1492398275656708564,95,1492398275587905883,,-176.204537451,-4.61570877818,-1.85508525349,0.0,-1.0,0.0,0.0,0.0,0.0,0.0,0.0,0.0,0.0,-0.034498140075,0.0114484978125,-0.0317505006,-1.0,0.0,0.0,0.0,0.0,0.0,0.0,0.0,0.0,-2.72803200008,-3.31643105892,-40.9877877277,-1.0,0.0,0.0,0.0,0.0,0.0,0.0,0.0,0.0
1492398275676739852,96,1492398275607964992,,-176.118084656,0.770839471216,-1.85508525349,0.0,-1.0,0.0,0.0,0.0,0.0,0.0,0.0,0.0,0.0,-0.0334296136125,0.011295851175,-0.0306819741375,-1.0,0.0,0.0,0.0,0.0,0.0,0.0,0.0,0.0,-2.78152282361,0.552738509819,-40.9877877277,-1.0,0.0,0.0,0.0,0.0,0.0,0.0,0.0,0.0
1492398275696530593,97,1492398275627885103,,-176.118084656,0.770839471216,-1.85508525349,0.0,-1.0,0.0,0.0,0.0,0.0,0.0,0.0,0.0,0.0,-0.032055793875,0.0109905579,-0.0315978539625,-1.0,0.0,0.0,0.0,0.0,0.0,0.0,0.0,0.0,-2.78152282361,0.552738509819,-40.9877877277,-1.0,0.0,0.0,0.0,0.0,0.0,0.0,0.0,0.0
1492398275716599914,98,1492398275647922992,,-176.118084656,0.770839471216,-1.85508525349,0.0,-1.0,0.0,0.0,0.0,0.0,0.0,0.0,0.0,0.0,-0.035719313175,0.012517024275,-0.0312925606875,-1.0,0.0,0.0,0.0,0.0,0.0,0.0,0.0,0.0,-2.78152282361,0.552738509819,-40.9877877277,-1.0,0.0,0.0,0.0,0.0,0.0,0.0,0.0,0.0
1492398275736637758,99,1492398275667936086,,-176.118084656,0.770839471216,-1.85508525349,0.0,-1.0,0.0,0.0,0.0,0.0,0.0,0.0,0.0,0.0,-0.0355666665375,0.0126696709125,-0.0329716737,-1.0,0.0,0.0,0.0,0.0,0.0,0.0,0.0,0.0,-2.78152282361,0.552738509819,-40.9877877277,-1.0,0.0,0.0,0.0,0.0,0.0,0.0,0.0,0.0
1492398275756764628,100,1492398275688061952,,-176.120162961,2.0258394862,-0.927785774462,0.0,-1.0,0.0,0.0,0.0,0.0,0.0,0.0,0.0,0.0,-0.0334296136125,0.01037997135,-0.02991874095,-1.0,0.0,0.0,0.0,0.0,0.0,0.0,0.0,0.0,-2.78152282361,1.45316737259,-40.9877877277,-1.0,0.0,0.0,0.0,0.0,0.0,0.0,0.0,0.0
1492398275776559008,101,1492398275707901000,,-176.120162961,2.0258394862,-0.927785774462,0.0,-1.0,0.0,0.0,0.0,0.0,0.0,0.0,0.0,0.0,-0.0364825463625,0.0123643776375,-0.030224034225,-1.0,0.0,0.0,0.0,0.0,0.0,0.0,0.0,0.0,-2.78152282361,1.45316737259,-40.9877877277,-1.0,0.0,0.0,0.0,0.0,0.0,0.0,0.0,0.0
1492398275796643271,102,1492398275727946996,,-176.120162961,2.0258394862,-0.927785774462,0.0,-1.0,0.0,0.0,0.0,0.0,0.0,0.0,0.0,0.0,-0.0349560799875,0.0108379112625,-0.0288502144875,-1.0,0.0,0.0,0.0,0.0,0.0,0.0,0.0,0.0,-2.78152282361,1.45316737259,-40.9877877277,-1.0,0.0,0.0,0.0,0.0,0.0,0.0,0.0,0.0
1492398275816623321,103,1492398275747873067,,-176.167403946,-0.285988157871,-0.927785774462,0.0,-1.0,0.0,0.0,0.0,0.0,0.0,0.0,0.0,0.0,-0.0343454934375,0.0126696709125,-0.030224034225,-1.0,0.0,0.0,0.0,0.0,0.0,0.0,0.0,0.0,-2.74586227459,-0.205048156868,-40.9877877277,-1.0,0.0,0.0,0.0,0.0,0.0,0.0,0.0,0.0
1492398275836525145,104,1492398275767924070,,-176.167403946,-0.285988157871,-0.927785774462,0.0,-1.0,0.0,0.0,0.0,0.0,0.0,0.0,0.0,0.0,-0.0334296136125,0.0129749641875,-0.029002861125,-1.0,0.0,0.0,0.0,0.0,0.0,0.0,0.0,0.0,-2.74586227459,-0.205048156868,-40.9877877277,-1.0,0.0,0.0,0.0,0.0,0.0,0.0,0.0,0.0
1492398275856883955,105,1492398275788203001,,-176.167403946,-0.285988157871,-1.60386277115,0.0,-1.0,0.0,0.0,0.0,0.0,0.0,0.0,0.0,0.0,-0.0334296136125,0.010685264625,-0.0322084405125,-1.0,0.0,0.0,0.0,0.0,0.0,0.0,0.0,0.0,-2.74586227459,-0.205048156868,-40.9877877277,-1.0,0.0,0.0,0.0,0.0,0.0,0.0,0.0,0.0
1492398275877640320,106,1492398275807914972,,-176.180353874,1.00709490933,-1.60386277115,0.0,-1.0,0.0,0.0,0.0,0.0,0.0,0.0,0.0,0.0,-0.033276966975,0.0117537910875,-0.032666380425,-1.0,0.0,0.0,0.0,0.0,0.0,0.0,0.0,0.0,-2.73694713733,0.722126117667,-40.9877877277,-1.0,0.0,0.0,0.0,0.0,0.0,0.0,0.0,0.0
1492398275897394922,107,1492398275828093051,,-176.180353874,1.00709490933,-1.60386277115,0.0,-1.0,0.0,0.0,0.0,0.0,0.0,0.0,0.0,0.0,-0.035719313175,0.012211731,-0.03113991405,-1.0,0.0,0.0,0.0,0.0,0.0,0.0,0.0,0.0,-2.73694713733,0.722126117667,-40.9877877277,-1.0,0.0,0.0,0.0,0.0,0.0,0.0,0.0,0.0
1492398275916760328,108,1492398275847940921,,-176.180353874,1.00709490933,-1.60386277115,0.0,-1.0,0.0,0.0,0.0,0.0,0.0,0.0,0.0,0.0,-0.0340402001625,0.0123643776375,-0.0276290413875,-1.0,0.0,0.0,0.0,0.0,0.0,0.0,0.0,0.0,-2.73694713733,0.722126117667,-40.9877877277,-1.0,0.0,0.0,0.0,0.0,0.0,0.0,0.0,0.0
1492398275936859987,109,1492398275867928981,,-176.155006423,0.310851708376,-1.60386277115,0.0,-1.0,0.0,0.0,0.0,0.0,0.0,0.0,0.0,0.0,-0.0343454934375,0.0102273247125,-0.025949928375,-1.0,0.0,0.0,0.0,0.0,0.0,0.0,0.0,0.0,-2.75477741184,0.222878431379,-40.9877877277,-1.0,0.0,0.0,0.0,0.0,0.0,0.0,0.0,0.0
1492398275956818024,110,1492398275888114929,,-176.155006423,0.310851708376,-1.62333252509,0.0,-1.0,0.0,0.0,0.0,0.0,0.0,0.0,0.0,0.0,-0.034498140075,0.0109905579,-0.0328190270625,-1.0,0.0,0.0,0.0,0.0,0.0,0.0,0.0,0.0,-2.75477741184,0.222878431379,-40.9877877277,-1.0,0.0,0.0,0.0,0.0,0.0,0.0,0.0,0.0
1492398275976815439,111,1492398275907898902,,-176.155006423,0.310851708376,-1.62333252509,0.0,-1.0,0.0,0.0,0.0,0.0,0.0,0.0,0.0,0.0,-0.032055793875,0.01160114445,-0.0279343346625,-1.0,0.0,0.0,0.0,0.0,0.0,0.0,0.0,0.0,-2.75477741184,0.222878431379,-40.9877877277,-1.0,0.0,0.0,0.0,0.0,0.0,0.0,0.0,0.0
1492398275996701074,112,1492398275927918910,,-176.155006423,0.310851708376,-1.62333252509,0.0,-1.0,0.0,0.0,0.0,0.0,0.0,0.0,0.0,0.0,-0.033276966975,0.01282231755,-0.0306819741375,-1.0,0.0,0.0,0.0,0.0,0.0,0.0,0.0,0.0,-2.75477741184,0.222878431379,-40.9877877277,-1.0,0.0,0.0,0.0,0.0,0.0,0.0,0.0,0.0
1492398276098921658,113,1492398275947984933,,-176.156457877,1.60359171043,-1.62333252509,0.0,-1.0,0.0,0.0,0.0,0.0,0.0,0.0,0.0,0.0,-0.0354140199,0.0129749641875,-0.0280869813,-1.0,0.0,0.0,0.0,0.0,0.0,0.0,0.0,0.0,-2.75477741184,1.15005270591,-40.9877877277,-1.0,0.0,0.0,0.0,0.0,0.0,0.0,0.0,0.0
1492398276098940770,114,1492398275967962026,,-176.156457877,1.60359171043,-1.62333252509,0.0,-1.0,0.0,0.0,0.0,0.0,0.0,0.0,0.0,0.0,-0.0346507867125,0.01037997135,-0.0305293275,-1.0,0.0,0.0,0.0,0.0,0.0,0.0,0.0,0.0,-2.75477741184,1.15005270591,-40.9877877277,-1.0,0.0,0.0,0.0,0.0,0.0,0.0,0.0,0.0
1492398276098945617,115,1492398275987931966,,-176.156457877,1.60359171043,-1.85508525349,0.0,-1.0,0.0,0.0,0.0,0.0,0.0,0.0,0.0,0.0,-0.0341928468,0.0105326179875,-0.02747639475,-1.0,0.0,0.0,0.0,0.0,0.0,0.0,0.0,0.0,-2.75477741184,1.15005270591,-40.9877877277,-1.0,0.0,0.0,0.0,0.0,0.0,0.0,0.0,0.0
1492398276098968757,116,1492398276007942914,,-176.168790353,-1.56634042495,-1.85508525349,0.0,-1.0,0.0,0.0,0.0,0.0,0.0,0.0,0.0,0.0,-0.0319031472375,0.01160114445,-0.0343454934375,-1.0,0.0,0.0,0.0,0.0,0.0,0.0,0.0,0.0,-2.74586227459,-1.12330729415,-40.9877877277,-1.0,0.0,0.0,0.0,0.0,0.0,0.0,0.0,0.0
1492398276105721198,117,1492398276027903079,,-176.168790353,-1.56634042495,-1.85508525349,0.0,-1.0,0.0,0.0,0.0,0.0,0.0,0.0,0.0,0.0,-0.035719313175,0.0109905579,-0.0319031472375,-1.0,0.0,0.0,0.0,0.0,0.0,0.0,0.0,0.0,-2.74586227459,-1.12330729415,-40.9877877277,-1.0,0.0,0.0,0.0,0.0,0.0,0.0,0.0,0.0
1492398276118093640,118,1492398276047966957,,-176.168790353,-1.56634042495,-1.85508525349,0.0,-1.0,0.0,0.0,0.0,0.0,0.0,0.0,0.0,0.0,-0.0354140199,0.0123643776375,-0.032666380425,-1.0,0.0,0.0,0.0,0.0,0.0,0.0,0.0,0.0,-2.74586227459,-1.12330729415,-40.9877877277,-1.0,0.0,0.0,0.0,0.0,0.0,0.0,0.0,0.0
1492398276136700624,119,1492398276067908048,,-176.163523313,-3.82404240661,-1.85508525349,0.0,-1.0,0.0,0.0,0.0,0.0,0.0,0.0,0.0,0.0,-0.03236108715,0.011906437725,-0.0294608010375,-1.0,0.0,0.0,0.0,0.0,0.0,0.0,0.0,0.0,-2.75477741184,-2.74586227459,-40.9877877277,-1.0,0.0,0.0,0.0,0.0,0.0,0.0,0.0,0.0
1492398276160421299,120,1492398276089456081,,-176.163523313,-3.82404240661,-1.85508525349,0.0,-1.0,0.0,0.0,0.0,0.0,0.0,0.0,0.0,0.0,-0.033276966975,0.011295851175,-0.030834620775,-1.0,0.0,0.0,0.0,0.0,0.0,0.0,0.0,0.0,-2.75477741184,-2.74586227459,-40.9877877277,-1.0,0.0,0.0,0.0,0.0,0.0,0.0,0.0,0.0
1492398276178779809,121,1492398276108669996,,-176.163523313,-3.82404240661,-1.3971810273,0.0,-1.0,0.0,0.0,0.0,0.0,0.0,0.0,0.0,0.0,-0.035108726625,0.0114484978125,-0.0279343346625,-1.0,0.0,0.0,0.0,0.0,0.0,0.0,0.0,0.0,-2.75477741184,-2.74586227459,-40.9877877277,-1.0,0.0,0.0,0.0,0.0,0.0,0.0,0.0,0.0
1492398276197927637,122,1492398276128798961,,-176.086100333,-3.05564093246,-1.3971810273,0.0,-1.0,0.0,0.0,0.0,0.0,0.0,0.0,0.0,0.0,-0.033887553525,0.0117537910875,-0.0306819741375,-1.0,0.0,0.0,0.0,0.0,0.0,0.0,0.0,0.0,-2.80826823537,-2.19312376477,-40.9877877277,-1.0,0.0,0.0,0.0,0.0,0.0,0.0,0.0,0.0
1492398276220686889,123,1492398276148503065,,-176.086100333,-3.05564093246,-1.3971810273,0.0,-1.0,0.0,0.0,0.0,0.0,0.0,0.0,0.0,0.0,-0.0361772530875,0.0123643776375,-0.0306819741375,-1.0,0.0,0.0,0.0,0.0,0.0,0.0,0.0,0.0,-2.80826823537,-2.19312376477,-40.9877877277,-1.0,0.0,0.0,0.0,0.0,0.0,0.0,0.0,0.0
1492398276237876380,124,1492398276168304920,,-176.086100333,-3.05564093246,-1.3971810273,0.0,-1.0,0.0,0.0,0.0,0.0,0.0,0.0,0.0,0.0,-0.033887553525,0.0114484978125,-0.0270184548375,-1.0,0.0,0.0,0.0,0.0,0.0,0.0,0.0,0.0,-2.80826823537,-2.19312376477,-40.9877877277,-1.0,0.0,0.0,0.0,0.0,0.0,0.0,0.0,0.0
1492398276338983768,125,1492398276188007116,,-176.086100333,-3.05564093246,-1.3971810273,0.0,-1.0,0.0,0.0,0.0,0.0,0.0,0.0,0.0,0.0,-0.0334296136125,0.0111432045375,-0.0280869813,-1.0,0.0,0.0,0.0,0.0,0.0,0.0,0.0,0.0,-2.80826823537,-2.19312376477,-40.9877877277,-1.0,0.0,0.0,0.0,0.0,0.0,0.0,0.0,0.0
1492398276339001989,126,1492398276208082914,,-176.136531081,-3.29133908563,-1.37483478057,0.0,-1.0,0.0,0.0,0.0,0.0,0.0,0.0,0.0,0.0,-0.034498140075,0.011295851175,-0.0317505006,-1.0,0.0,0.0,0.0,0.0,0.0,0.0,0.0,0.0,-2.77260768635,-2.36251137261,-40.9877877277,-1.0,0.0,0.0,0.0,0.0,0.0,0.0,0.0,0.0
1492398276339011366,127,1492398276227925062,,-176.136531081,-3.29133908563,-1.37483478057,0.0,-1.0,0.0,0.0,0.0,0.0,0.0,0.0,0.0,0.0,-0.034498140075,0.010074678075,-0.0305293275,-1.0,0.0,0.0,0.0,0.0,0.0,0.0,0.0,0.0,-2.77260768635,-2.36251137261,-40.9877877277,-1.0,0.0,0.0,0.0,0.0,0.0,0.0,0.0,0.0
1492398276339016533,128,1492398276247852087,,-176.136531081,-3.29133908563,-1.37483478057,0.0,-1.0,0.0,0.0,0.0,0.0,0.0,0.0,0.0,0.0,-0.0328190270625,0.0093114448875,-0.0282396279375,-1.0,0.0,0.0,0.0,0.0,0.0,0.0,0.0,0.0,-2.77260768635,-2.36251137261,-40.9877877277,-1.0,0.0,0.0,0.0,0.0,0.0,0.0,0.0,0.0
1492398276361248558,129,1492398276267901897,,-176.143767257,1.44204049263,-1.37483478057,0.0,-1.0,0.0,0.0,0.0,0.0,0.0,0.0,0.0,0.0,-0.0334296136125,0.0105326179875,-0.0285449212125,-1.0,0.0,0.0,0.0,0.0,0.0,0.0,0.0,0.0,-2.7636925491,1.0341559216,-40.9877877277,-1.0,0.0,0.0,0.0,0.0,0.0,0.0,0.0,0.0
1492398276361265092,130,1492398276287904024,,-176.143767257,1.44204049263,-1.37483478057,0.0,-1.0,0.0,0.0,0.0,0.0,0.0,0.0,0.0,0.0,-0.0358719598125,0.00793762515,-0.0257972817375,-1.0,0.0,0.0,0.0,0.0,0.0,0.0,0.0,0.0,-2.7636925491,1.0341559216,-40.9877877277,-1.0,0.0,0.0,0.0,0.0,0.0,0.0,0.0,0.0
1492398276377462510,131,1492398276308115005,,-176.143767257,1.44204049263,-1.39152665255,0.0,-1.0,0.0,0.0,0.0,0.0,0.0,0.0,0.0,0.0,-0.03358226025,0.010074678075,-0.02869756785,-1.0,0.0,0.0,0.0,0.0,0.0,0.0,0.0,0.0,-2.7636925491,1.0341559216,-40.9877877277,-1.0,0.0,0.0,0.0,0.0,0.0,0.0,0.0,0.0
1492398276397191944,132,1492398276327944993,,-176.167504294,4.62786256431,-1.39152665255,0.0,-1.0,0.0,0.0,0.0,0.0,0.0,0.0,0.0,0.0,-0.0352613732625,0.0109905579,-0.0267131615625,-1.0,0.0,0.0,0.0,0.0,0.0,0.0,0.0,0.0,-2.75477741184,3.32534619617,-40.9877877277,-1.0,0.0,0.0,0.0,0.0,0.0,0.0,0.0,0.0
1492398276420931978,133,1492398276347975969,,-176.167504294,4.62786256431,-1.39152665255,0.0,-1.0,0.0,0.0,0.0,0.0,0.0,0.0,0.0,0.0,-0.033887553525,0.012211731,-0.0315978539625,-1.0,0.0,0.0,0.0,0.0,0.0,0.0,0.0,0.0,-2.75477741184,3.32534619617,-40.9877877277,-1.0,0.0,0.0,0.0,0.0,0.0,0.0,0.0,0.0
1492398276437110955,134,1492398276367904901,,-176.167504294,4.62786256431,-1.39152665255,0.0,-1.0,0.0,0.0,0.0,0.0,0.0,0.0,0.0,0.0,-0.0331243203375,0.009464091525,-0.03480343335,-1.0,0.0,0.0,0.0,0.0,0.0,0.0,0.0,0.0,-2.75477741184,3.32534619617,-40.9877877277,-1.0,0.0,0.0,0.0,0.0,0.0,0.0,0.0,0.0
1492398276459188193,135,1492398276387923002,,-176.167504294,4.62786256431,-1.39152665255,0.0,-1.0,0.0,0.0,0.0,0.0,0.0,0.0,0.0,0.0,-0.0337349068875,0.011295851175,-0.0305293275,-1.0,0.0,0.0,0.0,0.0,0.0,0.0,0.0,0.0,-2.75477741184,3.32534619617,-40.9877877277,-1.0,0.0,0.0,0.0,0.0,0.0,0.0,0.0,0.0
1492398276477145900,136,1492398276407917976,,-176.080746904,4.59033002423,-1.60386277115,0.0,-1.0,0.0,0.0,0.0,0.0,0.0,0.0,0.0,0.0,-0.0322084405125,0.01282231755,-0.034498140075,-1.0,0.0,0.0,0.0,0.0,0.0,0.0,0.0,0.0,-2.81718337263,3.29860078441,-40.9877877277,-1.0,0.0,0.0,0.0,0.0,0.0,0.0,0.0,0.0
1492398276497123121,137,1492398276427908897,,-176.080746904,4.59033002423,-1.60386277115,0.0,-1.0,0.0,0.0,0.0,0.0,0.0,0.0,0.0,0.0,-0.0337349068875,0.0132802574625,-0.02991874095,-1.0,0.0,0.0,0.0,0.0,0.0,0.0,0.0,0.0,-2.81718337263,3.29860078441,-40.9877877277,-1.0,0.0,0.0,0.0,0.0,0.0,0.0,0.0,0.0
1492398276517211279,138,1492398276447962999,,-176.080746904,4.59033002423,-1.60386277115,0.0,-1.0,0.0,0.0,0.0,0.0,0.0,0.0,0.0,0.0,-0.0337349068875,0.0083955650625,-0.028392274575,-1.0,0.0,0.0,0.0,0.0,0.0,0.0,0.0,0.0,-2.81718337263,3.29860078441,-40.9877877277,-1.0,0.0,0.0,0.0,0.0,0.0,0.0,0.0,0.0
1492398276537291957,139,1492398276467938899,,-176.231251792,4.9739375092,-1.60386277115,0.0,-1.0,0.0,0.0,0.0,0.0,0.0,0.0,0.0,0.0,-0.035108726625,0.0123643776375,-0.032666380425,-1.0,0.0,0.0,0.0,0.0,0.0,0.0,0.0,0.0,-2.71020172557,3.57497003932,-40.9877877277,-1.0,0.0,0.0,0.0,0.0,0.0,0.0,0.0,0.0
1492398276557239151,140,1492398276487915039,,-176.231251792,4.9739375092,-1.60386277115,0.0,-1.0,0.0,0.0,0.0,0.0,0.0,0.0,0.0,0.0,-0.0349560799875,0.011295851175,-0.0280869813,-1.0,0.0,0.0,0.0,0.0,0.0,0.0,0.0,0.0,-2.71020172557,3.57497003932,-40.9877877277,-1.0,0.0,0.0,0.0,0.0,0.0,0.0,0.0,0.0
1492398276577423409,141,1492398276507940053,,-176.231251792,4.9739375092,-1.38035407344,0.0,-1.0,0.0,0.0,0.0,0.0,0.0,0.0,0.0,0.0,-0.03480343335,0.0108379112625,-0.0315978539625,-1.0,0.0,0.0,0.0,0.0,0.0,0.0,0.0,0.0,-2.71020172557,3.57497003932,-40.9877877277,-1.0,0.0,0.0,0.0,0.0,0.0,0.0,0.0,0.0
1492398276597119801,142,1492398276527903079,,-176.156285946,-6.65925077756,-1.38035407344,0.0,-1.0,0.0,0.0,0.0,0.0,0.0,0.0,0.0,0.0,-0.0349560799875,0.0102273247125,-0.0306819741375,-1.0,0.0,0.0,0.0,0.0,0.0,0.0,0.0,0.0,-2.77260768635,-4.79634384327,-40.9877877277,-1.0,0.0,0.0,0.0,0.0,0.0,0.0,0.0,0.0
1492398276617459438,143,1492398276548000097,,-176.156285946,-6.65925077756,-1.38035407344,0.0,-1.0,0.0,0.0,0.0,0.0,0.0,0.0,0.0,0.0,-0.034498140075,0.00915879825,-0.02747639475,-1.0,0.0,0.0,0.0,0.0,0.0,0.0,0.0,0.0,-2.77260768635,-4.79634384327,-40.9877877277,-1.0,0.0,0.0,0.0,0.0,0.0,0.0,0.0,0.0
1492398276636963554,144,1492398276567950010,,-176.156285946,-6.65925077756,-1.38035407344,0.0,-1.0,0.0,0.0,0.0,0.0,0.0,0.0,0.0,0.0,-0.03480343335,0.0096167381625,-0.0261025750125,-1.0,0.0,0.0,0.0,0.0,0.0,0.0,0.0,0.0,-2.77260768635,-4.79634384327,-40.9877877277,-1.0,0.0,0.0,0.0,0.0,0.0,0.0,0.0,0.0
1492398276664325798,145,1492398276588013887,,-176.122277528,5.34327781194,-1.38035407344,0.0,-1.0,0.0,0.0,0.0,0.0,0.0,0.0,0.0,0.0,-0.0325137337875,0.0109905579,-0.0303766808625,-1.0,0.0,0.0,0.0,0.0,0.0,0.0,0.0,0.0,-2.79043796086,3.84242415697,-40.9877877277,-1.0,0.0,0.0,0.0,0.0,0.0,0.0,0.0,0.0
1492398276677160068,146,1492398276607909917,,-176.122277528,5.34327781194,-1.38035407344,0.0,-1.0,0.0,0.0,0.0,0.0,0.0,0.0,0.0,0.0,-0.035108726625,0.01282231755,-0.02747639475,-1.0,0.0,0.0,0.0,0.0,0.0,0.0,0.0,0.0,-2.79043796086,3.84242415697,-40.9877877277,-1.0,0.0,0.0,0.0,0.0,0.0,0.0,0.0,0.0
1492398276697296634,147,1492398276627927064,,-176.122277528,5.34327781194,-1.38035407344,0.0,-1.0,0.0,0.0,0.0,0.0,0.0,0.0,0.0,0.0,-0.034498140075,0.011906437725,-0.02869756785,-1.0,0.0,0.0,0.0,0.0,0.0,0.0,0.0,0.0,-2.79043796086,3.84242415697,-40.9877877277,-1.0,0.0,0.0,0.0,0.0,0.0,0.0,0.0,0.0
1492398276717185586,148,1492398276647970914,,-176.122277528,5.34327781194,-1.38035407344,0.0,-1.0,0.0,0.0,0.0,0.0,0.0,0.0,0.0,0.0,-0.035719313175,0.01404349065,-0.02869756785,-1.0,0.0,0.0,0.0,0.0,0.0,0.0,0.0,0.0,-2.79043796086,3.84242415697,-40.9877877277,-1.0,0.0,0.0,0.0,0.0,0.0,0.0,0.0,0.0
1492398276737685377,149,1492398276667936086,,-176.204586383,-0.124348900005,-1.38035407344,0.0,-1.0,0.0,0.0,0.0,0.0,0.0,0.0,0.0,0.0,-0.0340402001625,0.0123643776375,-0.028392274575,-1.0,0.0,0.0,0.0,0.0,0.0,0.0,0.0,0.0,-2.71911686282,-0.0891513725515,-40.9877877277,-1.0,0.0,0.0,0.0,0.0,0.0,0.0,0.0,0.0
1492398276757280939,150,1492398276687889099,,-176.204586383,-0.124348900005,-1.38035407344,0.0,-1.0,0.0,0.0,0.0,0.0,0.0,0.0,0.0,0.0,-0.0346507867125,0.0090061516125,-0.027781688025,-1.0,0.0,0.0,0.0,0.0,0.0,0.0,0.0,0.0,-2.71911686282,-0.0891513725515,-40.9877877277,-1.0,0.0,0.0,0.0,0.0,0.0,0.0,0.0,0.0
1492398276777321916,151,1492398276707911014,,-176.204586383,-0.124348900005,-1.62333252509,0.0,-1.0,0.0,0.0,0.0,0.0,0.0,0.0,0.0,0.0,-0.0328190270625,0.0109905579,-0.0270184548375,-1.0,0.0,0.0,0.0,0.0,0.0,0.0,0.0,0.0,-2.71911686282,-0.0891513725515,-40.9877877277,-1.0,0.0,0.0,0.0,0.0,0.0,0.0,0.0,0.0
1492398276797080068,152,1492398276727880954,,-176.15515866,0.596819549601,-1.62333252509,0.0,-1.0,0.0,0.0,0.0,0.0,0.0,0.0,0.0,0.0,-0.034498140075,0.0120590843625,-0.0291555077625,-1.0,0.0,0.0,0.0,0.0,0.0,0.0,0.0,0.0,-2.75477741184,0.427926588247,-40.9877877277,-1.0,0.0,0.0,0.0,0.0,0.0,0.0,0.0,0.0
1492398276817436478,153,1492398276747868061,,-176.15515866,0.596819549601,-1.62333252509,0.0,-1.0,0.0,0.0,0.0,0.0,0.0,0.0,0.0,0.0,-0.0343454934375,0.01404349065,-0.030834620775,-1.0,0.0,0.0,0.0,0.0,0.0,0.0,0.0,0.0,-2.75477741184,0.427926588247,-40.9877877277,-1.0,0.0,0.0,0.0,0.0,0.0,0.0,0.0,0.0
1492398276837249623,154,1492398276767923116,,-176.15515866,0.596819549601,-1.62333252509,0.0,-1.0,0.0,0.0,0.0,0.0,0.0,0.0,0.0,0.0,-0.0346507867125,0.0134329041,-0.0305293275,-1.0,0.0,0.0,0.0,0.0,0.0,0.0,0.0,0.0,-2.75477741184,0.427926588247,-40.9877877277,-1.0,0.0,0.0,0.0,0.0,0.0,0.0,0.0,0.0
1492398276937732451,155,1492398276787885904,,-176.127604776,-4.08373983661,-1.62333252509,0.0,-1.0,0.0,0.0,0.0,0.0,0.0,0.0,0.0,0.0,-0.0337349068875,0.0120590843625,-0.030834620775,-1.0,0.0,0.0,0.0,0.0,0.0,0.0,0.0,0.0,-2.78152282361,-2.93308015694,-40.9877877277,-1.0,0.0,0.0,0.0,0.0,0.0,0.0,0.0,0.0
1492398276937778763,156,1492398276807981014,,-176.127604776,-4.08373983661,-1.3971810273,0.0,-1.0,0.0,0.0,0.0,0.0,0.0,0.0,0.0,0.0,-0.0354140199,0.0105326179875,-0.029002861125,-1.0,0.0,0.0,0.0,0.0,0.0,0.0,0.0,0.0,-2.78152282361,-2.93308015694,-40.9877877277,-1.0,0.0,0.0,0.0,0.0,0.0,0.0,0.0,0.0
1492398276937795492,157,1492398276827878952,,-176.127604776,-4.08373983661,-1.3971810273,0.0,-1.0,0.0,0.0,0.0,0.0,0.0,0.0,0.0,0.0,-0.0352613732625,0.014348783925,-0.030224034225,-1.0,0.0,0.0,0.0,0.0,0.0,0.0,0.0,0.0,-2.78152282361,-2.93308015694,-40.9877877277,-1.0,0.0,0.0,0.0,0.0,0.0,0.0,0.0,0.0
1492398276938001217,158,1492398276847918987,,-176.10801067,2.1251469071,-1.3971810273,0.0,-1.0,0.0,0.0,0.0,0.0,0.0,0.0,0.0,0.0,-0.0331243203375,0.013738197375,-0.0317505006,-1.0,0.0,0.0,0.0,0.0,0.0,0.0,0.0,0.0,-2.79043796086,1.52448847063,-40.9877877277,-1.0,0.0,0.0,0.0,0.0,0.0,0.0,0.0,0.0
1492398276949229183,159,1492398276867871046,,-176.10801067,2.1251469071,-1.3971810273,0.0,-1.0,0.0,0.0,0.0,0.0,0.0,0.0,0.0,0.0,-0.03358226025,0.010685264625,-0.0291555077625,-1.0,0.0,0.0,0.0,0.0,0.0,0.0,0.0,0.0,-2.79043796086,1.52448847063,-40.9877877277,-1.0,0.0,0.0,0.0,0.0,0.0,0.0,0.0,0.0
1492398276957494984,160,1492398276887955904,,-176.10801067,2.1251469071,-1.3971810273,0.0,-1.0,0.0,0.0,0.0,0.0,0.0,0.0,0.0,0.0,-0.034498140075,0.01037997135,-0.031445207325,-1.0,0.0,0.0,0.0,0.0,0.0,0.0,0.0,0.0,-2.79043796086,1.52448847063,-40.9877877277,-1.0,0.0,0.0,0.0,0.0,0.0,0.0,0.0,0.0
1492398276977503651,161,1492398276907927036,,-176.10801067,2.1251469071,-1.39152665255,0.0,-1.0,0.0,0.0,0.0,0.0,0.0,0.0,0.0,0.0,-0.0349560799875,0.0135855507375,-0.029002861125,-1.0,0.0,0.0,0.0,0.0,0.0,0.0,0.0,0.0,-2.79043796086,1.52448847063,-40.9877877277,-1.0,0.0,0.0,0.0,0.0,0.0,0.0,0.0,0.0
1492398276997176095,162,1492398276927875041,,-176.131518037,1.52899769521,-1.39152665255,0.0,-1.0,0.0,0.0,0.0,0.0,0.0,0.0,0.0,0.0,-0.0337349068875,0.010685264625,-0.0315978539625,-1.0,0.0,0.0,0.0,0.0,0.0,0.0,0.0,0.0,-2.77260768635,1.09656188238,-40.9877877277,-1.0,0.0,0.0,0.0,0.0,0.0,0.0,0.0,0.0
1492398277017290491,163,1492398276947868108,,-176.131518037,1.52899769521,-1.39152665255,0.0,-1.0,0.0,0.0,0.0,0.0,0.0,0.0,0.0,0.0,-0.0340402001625,0.0096167381625,-0.028392274575,-1.0,0.0,0.0,0.0,0.0,0.0,0.0,0.0,0.0,-2.77260768635,1.09656188238,-40.9877877277,-1.0,0.0,0.0,0.0,0.0,0.0,0.0,0.0,0.0
1492398277039744854,164,1492398276967916965,,-176.131518037,1.52899769521,-1.39152665255,0.0,-1.0,0.0,0.0,0.0,0.0,0.0,0.0,0.0,0.0,-0.0325137337875,0.0102273247125,-0.03113991405,-1.0,0.0,0.0,0.0,0.0,0.0,0.0,0.0,0.0,-2.77260768635,1.09656188238,-40.9877877277,-1.0,0.0,0.0,0.0,0.0,0.0,0.0,0.0,0.0
1492398277057437694,165,1492398276987935066,,-176.163523313,3.82404240661,-1.39152665255,0.0,-1.0,0.0,0.0,0.0,0.0,0.0,0.0,0.0,0.0,-0.0343454934375,0.0120590843625,-0.0309872674125,-1.0,0.0,0.0,0.0,0.0,0.0,0.0,0.0,0.0,-2.75477741184,2.74586227459,-40.9877877277,-1.0,0.0,0.0,0.0,0.0,0.0,0.0,0.0,0.0
1492398277077437711,166,1492398277007952928,,-176.163523313,3.82404240661,-1.40288153265,0.0,-1.0,0.0,0.0,0.0,0.0,0.0,0.0,0.0,0.0,-0.03358226025,0.01160114445,-0.030834620775,-1.0,0.0,0.0,0.0,0.0,0.0,0.0,0.0,0.0,-2.75477741184,2.74586227459,-40.9877877277,-1.0,0.0,0.0,0.0,0.0,0.0,0.0,0.0,0.0
1492398277097319113,167,1492398277027914047,,-176.163523313,3.82404240661,-1.40288153265,0.0,-1.0,0.0,0.0,0.0,0.0,0.0,0.0,0.0,0.0,-0.03480343335,0.012211731,-0.0331243203375,-1.0,0.0,0.0,0.0,0.0,0.0,0.0,0.0,0.0,-2.75477741184,2.74586227459,-40.9877877277,-1.0,0.0,0.0,0.0,0.0,0.0,0.0,0.0,0.0
1492398277117194712,168,1492398277047857046,,-176.167395992,0.261119983144,-1.40288153265,0.0,-1.0,0.0,0.0,0.0,0.0,0.0,0.0,0.0,0.0,-0.0346507867125,0.0114484978125,-0.0285449212125,-1.0,0.0,0.0,0.0,0.0,0.0,0.0,0.0,0.0,-2.74586227459,0.187217882358,-40.9877877277,-1.0,0.0,0.0,0.0,0.0,0.0,0.0,0.0,0.0
1492398277137589315,169,1492398277067899942,,-176.167395992,0.261119983144,-1.40288153265,0.0,-1.0,0.0,0.0,0.0,0.0,0.0,0.0,0.0,0.0,-0.0312925606875,0.012517024275,-0.02991874095,-1.0,0.0,0.0,0.0,0.0,0.0,0.0,0.0,0.0,-2.74586227459,0.187217882358,-40.9877877277,-1.0,0.0,0.0,0.0,0.0,0.0,0.0,0.0,0.0
1492398277159183265,170,1492398277088606119,,-176.167395992,0.261119983144,-1.40288153265,0.0,-1.0,0.0,0.0,0.0,0.0,0.0,0.0,0.0,0.0,-0.03480343335,0.01282231755,-0.031445207325,-1.0,0.0,0.0,0.0,0.0,0.0,0.0,0.0,0.0,-2.74586227459,0.187217882358,-40.9877877277,-1.0,0.0,0.0,0.0,0.0,0.0,0.0,0.0,0.0
1492398277179288344,171,1492398277108932018,,-176.079423954,4.34318043413,-1.40288153265,0.0,-1.0,0.0,0.0,0.0,0.0,0.0,0.0,0.0,0.0,-0.035719313175,0.0109905579,-0.0329716737,-1.0,0.0,0.0,0.0,0.0,0.0,0.0,0.0,0.0,-2.81718337263,3.1202980393,-40.9877877277,-1.0,0.0,0.0,0.0,0.0,0.0,0.0,0.0,0.0
1492398277199198589,172,1492398277129049062,,-176.079423954,4.34318043413,-1.40862873534,0.0,-1.0,0.0,0.0,0.0,0.0,0.0,0.0,0.0,0.0,-0.0328190270625,0.0117537910875,-0.03236108715,-1.0,0.0,0.0,0.0,0.0,0.0,0.0,0.0,0.0,-2.81718337263,3.1202980393,-40.9877877277,-1.0,0.0,0.0,0.0,0.0,0.0,0.0,0.0,0.0
1492398277218938008,173,1492398277148865938,,-176.079423954,4.34318043413,-1.40862873534,0.0,-1.0,0.0,0.0,0.0,0.0,0.0,0.0,0.0,0.0,-0.032666380425,0.0117537910875,-0.0337349068875,-1.0,0.0,0.0,0.0,0.0,0.0,0.0,0.0,0.0,-2.81718337263,3.1202980393,-40.9877877277,-1.0,0.0,0.0,0.0,0.0,0.0,0.0,0.0,0.0
1492398277239925301,174,1492398277168530941,,-176.079423954,4.34318043413,-1.40862873534,0.0,-1.0,0.0,0.0,0.0,0.0,0.0,0.0,0.0,0.0,-0.0343454934375,0.012517024275,-0.0325137337875,-1.0,0.0,0.0,0.0,0.0,0.0,0.0,0.0,0.0,-2.81718337263,3.1202980393,-40.9877877277,-1.0,0.0,0.0,0.0,0.0,0.0,0.0,0.0,0.0
1492398277260444788,175,1492398277188379049,,-176.173880129,-3.34105374063,-1.40862873534,0.0,-1.0,0.0,0.0,0.0,0.0,0.0,0.0,0.0,0.0,-0.0358719598125,0.012517024275,-0.0328190270625,-1.0,0.0,0.0,0.0,0.0,0.0,0.0,0.0,0.0,-2.74586227459,-2.39817192164,-40.9877877277,-1.0,0.0,0.0,0.0,0.0,0.0,0.0,0.0,0.0
1492398277278611172,176,1492398277208062887,,-176.173880129,-3.34105374063,-1.40862873534,0.0,-1.0,0.0,0.0,0.0,0.0,0.0,0.0,0.0,0.0,-0.0358719598125,0.0126696709125,-0.0291555077625,-1.0,0.0,0.0,0.0,0.0,0.0,0.0,0.0,0.0,-2.74586227459,-2.39817192164,-40.9877877277,-1.0,0.0,0.0,0.0,0.0,0.0,0.0,0.0,0.0
1492398277296880865,177,1492398277228028059,,-176.173880129,-3.34105374063,-1.60386277115,0.0,-1.0,0.0,0.0,0.0,0.0,0.0,0.0,0.0,0.0,-0.03602460645,0.0114484978125,-0.0279343346625,-1.0,0.0,0.0,0.0,0.0,0.0,0.0,0.0,0.0,-2.74586227459,-2.39817192164,-40.9877877277,-1.0,0.0,0.0,0.0,0.0,0.0,0.0,0.0,0.0
1492398277317356205,178,1492398277248025894,,-176.105341069,0.149201205572,-1.60386277115,0.0,-1.0,0.0,0.0,0.0,0.0,0.0,0.0,0.0,0.0,-0.0349560799875,0.010074678075,-0.032666380425,-1.0,0.0,0.0,0.0,0.0,0.0,0.0,0.0,0.0,-2.79043796086,0.106981647062,-40.9877877277,-1.0,0.0,0.0,0.0,0.0,0.0,0.0,0.0,0.0
1492398277337044707,179,1492398277267923116,,-176.105341069,0.149201205572,-1.60386277115,0.0,-1.0,0.0,0.0,0.0,0.0,0.0,0.0,0.0,0.0,-0.0364825463625,0.01160114445,-0.0319031472375,-1.0,0.0,0.0,0.0,0.0,0.0,0.0,0.0,0.0,-2.79043796086,0.106981647062,-40.9877877277,-1.0,0.0,0.0,0.0,0.0,0.0,0.0,0.0,0.0
1492398277357366522,180,1492398277288006067,,-176.105341069,0.149201205572,-1.60386277115,0.0,-1.0,0.0,0.0,0.0,0.0,0.0,0.0,0.0,0.0,-0.0343454934375,0.0102273247125,-0.027171101475,-1.0,0.0,0.0,0.0,0.0,0.0,0.0,0.0,0.0,-2.79043796086,0.106981647062,-40.9877877277,-1.0,0.0,0.0,0.0,0.0,0.0,0.0,0.0,0.0
1492398277377329308,181,1492398277308015108,,-176.149808961,-3.51441044432,-1.60386277115,0.0,-1.0,0.0,0.0,0.0,0.0,0.0,0.0,0.0,0.0,-0.033887553525,0.01037997135,-0.0297660943125,-1.0,0.0,0.0,0.0,0.0,0.0,0.0,0.0,0.0,-2.7636925491,-2.52298384321,-40.9877877277,-1.0,0.0,0.0,0.0,0.0,0.0,0.0,0.0,0.0
1492398277397103908,182,1492398277327888011,,-176.149808961,-3.51441044432,-1.38591785081,0.0,-1.0,0.0,0.0,0.0,0.0,0.0,0.0,0.0,0.0,-0.0340402001625,0.0123643776375,-0.0279343346625,-1.0,0.0,0.0,0.0,0.0,0.0,0.0,0.0,0.0,-2.7636925491,-2.52298384321,-40.9877877277,-1.0,0.0,0.0,0.0,0.0,0.0,0.0,0.0,0.0
1492398277417798951,183,1492398277347940921,,-176.149808961,-3.51441044432,-1.38591785081,0.0,-1.0,0.0,0.0,0.0,0.0,0.0,0.0,0.0,0.0,-0.035108726625,0.011295851175,-0.029613447675,-1.0,0.0,0.0,0.0,0.0,0.0,0.0,0.0,0.0,-2.7636925491,-2.52298384321,-40.9877877277,-1.0,0.0,0.0,0.0,0.0,0.0,0.0,0.0,0.0
1492398277437402617,184,1492398277367897987,,-176.205402152,1.19357862639,-1.38591785081,0.0,-1.0,0.0,0.0,0.0,0.0,0.0,0.0,0.0,0.0,-0.0334296136125,0.01282231755,-0.0328190270625,-1.0,0.0,0.0,0.0,0.0,0.0,0.0,0.0,0.0,-2.71911686282,0.855853176494,-40.9877877277,-1.0,0.0,0.0,0.0,0.0,0.0,0.0,0.0,0.0
1492398277457360300,185,1492398277387933015,,-176.205402152,1.19357862639,-1.38591785081,0.0,-1.0,0.0,0.0,0.0,0.0,0.0,0.0,0.0,0.0,-0.0337349068875,0.0148067238375,-0.0305293275,-1.0,0.0,0.0,0.0,0.0,0.0,0.0,0.0,0.0,-2.71911686282,0.855853176494,-40.9877877277,-1.0,0.0,0.0,0.0,0.0,0.0,0.0,0.0,0.0
1492398277476980885,186,1492398277407907009,,-176.205402152,1.19357862639,-1.38591785081,0.0,-1.0,0.0,0.0,0.0,0.0,0.0,0.0,0.0,0.0,-0.0349560799875,0.01037997135,-0.0276290413875,-1.0,0.0,0.0,0.0,0.0,0.0,0.0,0.0,0.0,-2.71911686282,0.855853176494,-40.9877877277,-1.0,0.0,0.0,0.0,0.0,0.0,0.0,0.0,0.0
1492398277497286488,187,1492398277427975893,,-176.205402152,1.19357862639,-1.61679031067,0.0,-1.0,0.0,0.0,0.0,0.0,0.0,0.0,0.0,0.0,-0.0349560799875,0.0105326179875,-0.0306819741375,-1.0,0.0,0.0,0.0,0.0,0.0,0.0,0.0,0.0,-2.71911686282,0.855853176494,-40.9877877277,-1.0,0.0,0.0,0.0,0.0,0.0,0.0,0.0,0.0
1492398277516953805,188,1492398277447962999,,-176.155073884,0.460055155157,-1.61679031067,0.0,-1.0,0.0,0.0,0.0,0.0,0.0,0.0,0.0,0.0,-0.03480343335,0.0132802574625,-0.029002861125,-1.0,0.0,0.0,0.0,0.0,0.0,0.0,0.0,0.0,-2.75477741184,0.329860078441,-40.9877877277,-1.0,0.0,0.0,0.0,0.0,0.0,0.0,0.0,0.0
1492398277537390441,189,1492398277467977046,,-176.155073884,0.460055155157,-1.61679031067,0.0,-1.0,0.0,0.0,0.0,0.0,0.0,0.0,0.0,0.0,-0.0325137337875,0.0114484978125,-0.031445207325,-1.0,0.0,0.0,0.0,0.0,0.0,0.0,0.0,0.0,-2.75477741184,0.329860078441,-40.9877877277,-1.0,0.0,0.0,0.0,0.0,0.0,0.0,0.0,0.0
1492398277557518806,190,1492398277487916946,,-176.155073884,0.460055155157,-1.61679031067,0.0,-1.0,0.0,0.0,0.0,0.0,0.0,0.0,0.0,0.0,-0.0343454934375,0.010685264625,-0.02991874095,-1.0,0.0,0.0,0.0,0.0,0.0,0.0,0.0,0.0,-2.75477741184,0.329860078441,-40.9877877277,-1.0,0.0,0.0,0.0,0.0,0.0,0.0,0.0,0.0
1492398277577348733,191,1492398277507927894,,-176.15636585,1.55389270463,-1.61679031067,0.0,-1.0,0.0,0.0,0.0,0.0,0.0,0.0,0.0,0.0,-0.0340402001625,0.0096167381625,-0.03113991405,-1.0,0.0,0.0,0.0,0.0,0.0,0.0,0.0,0.0,-2.75477741184,1.11439215689,-40.9877877277,-1.0,0.0,0.0,0.0,0.0,0.0,0.0,0.0,0.0
1492398277597274164,192,1492398277527904987,,-176.15636585,1.55389270463,-1.15036306133,0.0,-1.0,0.0,0.0,0.0,0.0,0.0,0.0,0.0,0.0,-0.032055793875,0.010685264625,-0.0334296136125,-1.0,0.0,0.0,0.0,0.0,0.0,0.0,0.0,0.0,-2.75477741184,1.11439215689,-40.9877877277,-1.0,0.0,0.0,0.0,0.0,0.0,0.0,0.0,0.0
1492398277617411327,193,1492398277547878980,,-176.15636585,1.55389270463,-1.15036306133,0.0,-1.0,0.0,0.0,0.0,0.0,0.0,0.0,0.0,0.0,-0.0355666665375,0.0099220314375,-0.0282396279375,-1.0,0.0,0.0,0.0,0.0,0.0,0.0,0.0,0.0,-2.75477741184,1.11439215689,-40.9877877277,-1.0,0.0,0.0,0.0,0.0,0.0,0.0,0.0,0.0
1492398277637339375,194,1492398277567938089,,-176.122525015,2.84496426397,-1.15036306133,0.0,-1.0,0.0,0.0,0.0,0.0,0.0,0.0,0.0,0.0,-0.0355666665375,0.0129749641875,-0.0293081544,-1.0,0.0,0.0,0.0,0.0,0.0,0.0,0.0,0.0,-2.78152282361,2.04156643143,-40.9877877277,-1.0,0.0,0.0,0.0,0.0,0.0,0.0,0.0,0.0
1492398277657366576,195,1492398277587913990,,-176.122525015,2.84496426397,-1.15036306133,0.0,-1.0,0.0,0.0,0.0,0.0,0.0,0.0,0.0,0.0,-0.034498140075,0.0123643776375,-0.0305293275,-1.0,0.0,0.0,0.0,0.0,0.0,0.0,0.0,0.0,-2.78152282361,2.04156643143,-40.9877877277,-1.0,0.0,0.0,0.0,0.0,0.0,0.0,0.0,0.0
1492398277676970384,196,1492398277607913017,,-176.122525015,2.84496426397,-1.15036306133,0.0,-1.0,0.0,0.0,0.0,0.0,0.0,0.0,0.0,0.0,-0.035108726625,0.0120590843625,-0.0294608010375,-1.0,0.0,0.0,0.0,0.0,0.0,0.0,0.0,0.0,-2.78152282361,2.04156643143,-40.9877877277,-1.0,0.0,0.0,0.0,0.0,0.0,0.0,0.0,0.0
1492398277697422447,197,1492398277627964019,,-176.154965074,-0.161644045492,-1.14576283818,0.0,-1.0,0.0,0.0,0.0,0.0,0.0,0.0,0.0,0.0,-0.03236108715,0.011906437725,-0.0315978539625,-1.0,0.0,0.0,0.0,0.0,0.0,0.0,0.0,0.0,-2.75477741184,-0.115896784317,-40.9877877277,-1.0,0.0,0.0,0.0,0.0,0.0,0.0,0.0,0.0
1492398277717074439,198,1492398277647917032,,-176.154965074,-0.161644045492,-1.14576283818,0.0,-1.0,0.0,0.0,0.0,0.0,0.0,0.0,0.0,0.0,-0.0337349068875,0.01282231755,-0.0315978539625,-1.0,0.0,0.0,0.0,0.0,0.0,0.0,0.0,0.0,-2.75477741184,-0.115896784317,-40.9877877277,-1.0,0.0,0.0,0.0,0.0,0.0,0.0,0.0,0.0
